[{"business_id": "XphmlM6c1a2gJ9dDv0MTEQ", "name": "US Immigration", "address": "234 W Service Rd", "city": "Champlain", "state": "NY", "postal_code": "12919", "latitude": 45.00667, "longitude": -73.454383, "stars": 3.5, "review_count": 3, "is_open": 1, "attributes": null, "categories": "Public Services & Government", "hours": null}, {"business_id": "0Ur9usWBEN-fPvMgfmqC1A", "name": "Contact Lens King", "address": "30 Lawrence Paquette Dr", "city": "Champlain", "state": "NY", "postal_code": "12919", "latitude": 44.985468, "longitude": -73.424611, "stars": 2.0, "review_count": 4, "is_open": 1, "attributes": null, "categories": "Shopping, Personal Shopping, Eyewear & Opticians, Health & Medical", "hours": {"Monday": "8:30-18:0", "Tuesday": "8:30-18:0", "Wednesday": "8:30-18:0", "Thursday": "8:30-18:0", "Friday": "8:30-18:0"}}, {"business_id": "Ya-HZZrzMWYSBtGyLajDQg", "name": "Nathan's Famous", "address": "1038 State Rt 11", "city": "Champlain", "state": "NY", "postal_code": "12919", "latitude": 44.9811404098, "longitude": -73.458718434, "stars": 4.0, "review_count": 4, "is_open": 1, "attributes": {"RestaurantsAttire": "u'casual'", "WheelchairAccessible": "True", "OutdoorSeating": "True", "BusinessAcceptsCreditCards": "True", "WiFi": "u'free'", "GoodForKids": "True", "HasTV": "True", "RestaurantsGoodForGroups": "True", "RestaurantsPriceRange2": "1", "GoodForMeal": "{'dessert': False, 'latenight': False, 'lunch': False, 'dinner': False, 'brunch': False, 'breakfast': False}", "RestaurantsTakeOut": "True", "DriveThru": "False", "DogsAllowed": "False", "Alcohol": "u'none'", "RestaurantsReservations": "False", "BusinessParking": "{'garage': False, 'street': False, 'validated': False, 'lot': True, 'valet': False}", "RestaurantsDelivery": "False", "NoiseLevel": "u'average'", "Ambience": "{'touristy': False, 'hipster': False, 'romantic': False, 'divey': False, 'intimate': False, 'trendy': False, 'upscale': False, 'classy': False, 'casual': False}", "RestaurantsTableService": "False", "Caters": "True", "BikeParking": "True"}, "categories": "Hot Dogs, Gas Stations, Burgers, Food Stands, Automotive, Restaurants, Food, Convenience Stores, Fast Food, Comfort Food", "hours": {"Monday": "10:0-21:0", "Tuesday": "10:0-21:0", "Wednesday": "10:0-21:0", "Thursday": "10:0-21:0", "Friday": "10:0-21:0", "Saturday": "10:0-21:0", "Sunday": "10:0-21:0"}}, {"business_id": "Uz77JHl5e6zlGa-71-6_dA", "name": "China Buffet", "address": "876 State Rt 11", "city": "Champlain", "state": "NY", "postal_code": "12919", "latitude": 44.979672, "longitude": -73.4449037, "stars": 2.5, "review_count": 4, "is_open": 1, "attributes": {"RestaurantsReservations": "False", "WiFi": "u'no'", "NoiseLevel": "u'quiet'", "RestaurantsAttire": "u'casual'", "GoodForKids": "True", "RestaurantsTakeOut": "True", "RestaurantsPriceRange2": "2", "RestaurantsGoodForGroups": "True", "OutdoorSeating": "False", "HasTV": "True", "BusinessAcceptsCreditCards": "True", "Alcohol": "u'none'", "BusinessParking": "None"}, "categories": "Restaurants, Buffets, Szechuan, Chinese, Cantonese", "hours": {"Monday": "10:0-23:0", "Tuesday": "10:0-23:0", "Wednesday": "10:0-23:0", "Thursday": "10:0-23:0", "Friday": "10:0-23:0", "Saturday": "10:0-23:0", "Sunday": "12:0-23:30"}}, {"business_id": "f5Pg89x-2xek78E9KHMhNg", "name": "Lakeside Coffee", "address": "109 Lake St", "city": "Rouses Point", "state": "NY", "postal_code": "12979", "latitude": 44.9931808, "longitude": -73.3641541, "stars": 4.5, "review_count": 22, "is_open": 1, "attributes": {"WiFi": "u'free'", "BusinessParking": "{'garage': False, 'street': True, 'validated': False, 'lot': False, 'valet': False}", "BikeParking": "True", "GoodForKids": "True", "BusinessAcceptsCreditCards": "True", "RestaurantsPriceRange2": "1", "OutdoorSeating": "True", "RestaurantsTakeOut": "True", "Ambience": "{'touristy': False, 'hipster': False, 'romantic': False, 'divey': False, 'intimate': False, 'trendy': False, 'upscale': False, 'classy': False, 'casual': False}", "RestaurantsDelivery": "False", "RestaurantsReservations": "False", "RestaurantsGoodForGroups": "True", "RestaurantsAttire": "'casual'", "GoodForMeal": "{'dessert': False, 'latenight': False, 'lunch': False, 'dinner': False, 'brunch': False, 'breakfast': False}", "HasTV": "True"}, "categories": "Sandwiches, Restaurants, Salad, Coffee & Tea, Food", "hours": {"Tuesday": "7:0-15:0", "Wednesday": "7:0-15:0", "Thursday": "7:0-15:0", "Friday": "7:0-15:0", "Saturday": "8:0-14:0", "Sunday": "8:0-14:0"}}, {"business_id": "sY2TrIpQaS8kFDI8GRGS3Q", "name": "Sandy's Deli & Catering", "address": "133 Lake St", "city": "Rouses Point", "state": "NY", "postal_code": "12979", "latitude": 44.9922132, "longitude": -73.3637836, "stars": 2.5, "review_count": 7, "is_open": 1, "attributes": {"RestaurantsAttire": "u'casual'", "RestaurantsTakeOut": "True", "RestaurantsDelivery": "True", "RestaurantsPriceRange2": "1", "BusinessParking": "{'garage': False, 'street': False, 'validated': False, 'lot': False, 'valet': False}", "BusinessAcceptsCreditCards": "True", "OutdoorSeating": "False", "RestaurantsGoodForGroups": "True", "RestaurantsReservations": "False", "GoodForKids": "True", "HasTV": "True", "BikeParking": "True"}, "categories": "Delis, Restaurants", "hours": {"Monday": "9:0-21:0", "Tuesday": "9:0-21:0", "Wednesday": "9:0-21:0", "Thursday": "9:0-21:0", "Friday": "9:0-21:0", "Saturday": "9:0-21:0", "Sunday": "11:0-21:0"}}, {"business_id": "6029Vtm4LVYGPLm00htXrQ", "name": "Maplefields Champ Irving", "address": "3 Spiegel Dr, Ste 3", "city": "Champlain", "state": "NY", "postal_code": "12919", "latitude": 44.9803095616, "longitude": -73.4547526872, "stars": 4.0, "review_count": 3, "is_open": 1, "attributes": {"RestaurantsPriceRange2": "1", "BusinessParking": "{'garage': False, 'street': False, 'validated': False, 'lot': False, 'valet': False}", "RestaurantsTakeOut": "True", "BusinessAcceptsCreditCards": "True"}, "categories": "Convenience Stores, Automotive, Gas Stations, Restaurants, Food, Fast Food", "hours": {"Monday": "0:0-0:0", "Tuesday": "0:0-0:0", "Wednesday": "0:0-0:0", "Thursday": "0:0-0:0", "Friday": "0:0-0:0", "Saturday": "0:0-0:0", "Sunday": "0:0-0:0"}}, {"business_id": "ZDf_G8xgtkqqaDfuuJ2GzQ", "name": "Yves Rocher", "address": "", "city": "Champlain", "state": "NY", "postal_code": "12919", "latitude": 44.96514, "longitude": -73.4343, "stars": 4.0, "review_count": 3, "is_open": 1, "attributes": null, "categories": "Beauty & Spas, Cosmetics & Beauty Supply, Shopping", "hours": null}, {"business_id": "LbM7p-cI0dUCkaUzOyFMTw", "name": "McDonald's", "address": "1044 Rte 11", "city": "Champlain", "state": "NY", "postal_code": "12919", "latitude": 44.98147, "longitude": -73.45985, "stars": 2.0, "review_count": 13, "is_open": 1, "attributes": {"NoiseLevel": "u'quiet'", "Alcohol": "u'none'", "GoodForKids": "True", "RestaurantsGoodForGroups": "True", "RestaurantsTakeOut": "True", "BusinessAcceptsCreditCards": "True", "OutdoorSeating": "False", "RestaurantsReservations": "False", "RestaurantsAttire": "u'casual'", "RestaurantsDelivery": "True", "RestaurantsPriceRange2": "1", "HasTV": "True", "BusinessParking": "{'garage': False, 'street': False, 'validated': False, 'lot': True, 'valet': False}", "GoodForMeal": "{'dessert': False, 'latenight': False, 'lunch': False, 'dinner': False, 'brunch': False, 'breakfast': False}", "Caters": "False"}, "categories": "Restaurants, Fast Food, Coffee & Tea, Food, Burgers", "hours": {"Monday": "5:0-23:0", "Tuesday": "5:0-23:0", "Wednesday": "5:0-23:0", "Thursday": "5:0-23:0", "Friday": "5:0-23:0", "Saturday": "5:0-23:0", "Sunday": "5:0-23:0"}}, {"business_id": "V-uUDuDnUMqUWPjNULqPOA", "name": "Freeport Forwarding", "address": "1320 State Rt 9", "city": "Champlain", "state": "NY", "postal_code": "12919", "latitude": 44.9941008, "longitude": -73.4549795, "stars": 4.5, "review_count": 3, "is_open": 1, "attributes": {"BusinessAcceptsCreditCards": "False"}, "categories": "Local Services, Shipping Centers", "hours": {"Monday": "7:0-19:0", "Tuesday": "7:0-19:0", "Wednesday": "7:0-19:0", "Thursday": "7:0-19:0", "Friday": "7:0-20:0"}}, {"business_id": "0oyzNutZ--rBqP_boeegPg", "name": "Best Friends Family Diner", "address": "13 Lake St", "city": "Rouses Point", "state": "NY", "postal_code": "12979", "latitude": 44.999192, "longitude": -73.366007, "stars": 3.0, "review_count": 11, "is_open": 1, "attributes": {"NoiseLevel": "'quiet'", "RestaurantsTakeOut": "True", "RestaurantsAttire": "'casual'", "Caters": "False", "RestaurantsGoodForGroups": "True", "BikeParking": "False", "RestaurantsPriceRange2": "1", "WiFi": "u'free'", "GoodForKids": "True", "WheelchairAccessible": "True", "RestaurantsReservations": "False", "OutdoorSeating": "False", "HasTV": "True", "BusinessAcceptsCreditCards": "True", "BusinessParking": "{'garage': False, 'street': False, 'validated': False, 'lot': True, 'valet': False}", "Alcohol": "'none'", "DogsAllowed": "False", "RestaurantsDelivery": "False", "RestaurantsTableService": "True", "BusinessAcceptsBitcoin": "False"}, "categories": "Restaurants, American (New), American (Traditional), Breakfast & Brunch, Diners", "hours": {"Monday": "6:0-20:0", "Tuesday": "6:0-20:0", "Wednesday": "6:0-20:0", "Thursday": "6:0-20:0", "Friday": "6:0-20:0", "Saturday": "6:0-20:0", "Sunday": "6:0-20:0"}}, {"business_id": "BmZu5ackYYCrgQIaJ3-r9A", "name": "Angelo's Pizza & Grill", "address": "44 Champlain St", "city": "Rouses Point", "state": "NY", "postal_code": "12979", "latitude": 44.9832840757, "longitude": -73.3683259164, "stars": 3.0, "review_count": 21, "is_open": 1, "attributes": {"GoodForKids": "True", "RestaurantsReservations": "True", "OutdoorSeating": "False", "BusinessAcceptsCreditCards": "True", "RestaurantsGoodForGroups": "True", "Ambience": "{'romantic': False, 'intimate': False, 'touristy': False, 'hipster': False, 'divey': False, 'classy': False, 'trendy': False, 'upscale': False, 'casual': True}", "WiFi": "u'no'", "RestaurantsDelivery": "False", "Alcohol": "u'beer_and_wine'", "BusinessParking": "{'garage': False, 'street': False, 'validated': False, 'lot': True, 'valet': False}", "RestaurantsPriceRange2": "2", "Caters": "False", "GoodForMeal": "{'dessert': True, 'latenight': False, 'lunch': True, 'dinner': True, 'brunch': False, 'breakfast': False}", "NoiseLevel": "u'average'", "BikeParking": "True", "RestaurantsAttire": "u'casual'", "RestaurantsTakeOut": "True", "HasTV": "True"}, "categories": "American (Traditional), Pizza, Italian, Restaurants, Breakfast & Brunch", "hours": {"Monday": "11:0-21:0", "Tuesday": "11:0-21:0", "Wednesday": "11:0-21:0", "Thursday": "11:0-21:0", "Friday": "11:0-21:0", "Saturday": "11:0-21:0", "Sunday": "7:30-21:0"}}, {"business_id": "Sm1aTKiMrBRUmpbdVg5wAg", "name": "Casa Capitano", "address": "216 Lake St", "city": "Rouses Point", "state": "NY", "postal_code": "12979", "latitude": 44.9833547, "longitude": -73.3634552, "stars": 4.5, "review_count": 12, "is_open": 1, "attributes": {"RestaurantsReservations": "True", "RestaurantsDelivery": "False", "RestaurantsTakeOut": "True", "BusinessAcceptsCreditCards": "True", "Ambience": "{'touristy': False, 'hipster': False, 'romantic': False, 'divey': False, 'intimate': False, 'trendy': False, 'upscale': False, 'classy': False, 'casual': False}"}, "categories": "Restaurants, Sicilian, Pizza, Italian, New Mexican Cuisine", "hours": {"Thursday": "16:0-21:0", "Friday": "16:0-21:0", "Saturday": "16:0-21:0", "Sunday": "11:0-21:0"}}, {"business_id": "jH19V2I9fIslnNhDzPmdkA", "name": "Sandi's Kountry Kitchen", "address": "2539 State Rte 11", "city": "Mooers", "state": "NY", "postal_code": "12958", "latitude": 44.9597306, "longitude": -73.5924597, "stars": 5.0, "review_count": 10, "is_open": 1, "attributes": {"BusinessParking": "{'garage': False, 'street': False, 'validated': False, 'lot': True, 'valet': False}", "GoodForKids": "True", "WheelchairAccessible": "True", "Alcohol": "u'none'", "RestaurantsDelivery": "False", "Ambience": "{'touristy': False, 'hipster': False, 'romantic': False, 'divey': False, 'intimate': False, 'trendy': False, 'upscale': False, 'classy': False, 'casual': False}", "WiFi": "u'free'", "Caters": "False", "RestaurantsGoodForGroups": "True", "BusinessAcceptsCreditCards": "True", "BikeParking": "True", "RestaurantsReservations": "True", "DogsAllowed": "False", "GoodForMeal": "{'dessert': False, 'latenight': False, 'lunch': False, 'dinner': False, 'brunch': False, 'breakfast': False}", "RestaurantsTakeOut": "False", "RestaurantsTableService": "True", "BusinessAcceptsBitcoin": "False", "OutdoorSeating": "False"}, "categories": "Diners, American (Traditional), Restaurants, Breakfast & Brunch, Sandwiches", "hours": {"Monday": "0:0-0:0", "Tuesday": "7:0-19:30", "Wednesday": "7:0-19:30", "Thursday": "7:0-19:30", "Friday": "7:0-20:0", "Saturday": "7:0-20:0", "Sunday": "7:0-19:30"}}, {"business_id": "WCei-r9iAqxEIFX40zOebA", "name": "Pizza Plus", "address": "881 Rte 11", "city": "Champlain", "state": "NY", "postal_code": "12919", "latitude": 44.978459, "longitude": -73.444889, "stars": 4.5, "review_count": 3, "is_open": 1, "attributes": {"RestaurantsTakeOut": "True"}, "categories": "Restaurants, Pizza", "hours": null}, {"business_id": "NVsv96we6iTkEClbSlWd5A", "name": "Anchorage Hotel", "address": "164 Lake St", "city": "Rouses Point", "state": "NY", "postal_code": "12979", "latitude": 44.9881127, "longitude": -73.3647571, "stars": 1.5, "review_count": 3, "is_open": 1, "attributes": {"WiFi": "u'free'", "RestaurantsPriceRange2": "3", "BusinessAcceptsCreditCards": "True"}, "categories": "Hotels & Travel, Hotels, Event Planning & Services", "hours": null}, {"business_id": "3lFUdYf2zfFxrm8LIpupBw", "name": "Matt & Nat", "address": "2002 Ridge Rd", "city": "Champlain", "state": "NY", "postal_code": "12919", "latitude": 44.9774607, "longitude": -73.4497689, "stars": 1.5, "review_count": 60, "is_open": 1, "attributes": {"BusinessAcceptsCreditCards": "True", "RestaurantsPriceRange2": "3", "BikeParking": "False"}, "categories": "Shopping, Fashion, Accessories", "hours": null}, {"business_id": "-5Kbw0m7lpLDAQSX5t-fVA", "name": "Williamsburg Smile Design", "address": "189 N 9th St", "city": "Brooklyn", "state": "NY", "postal_code": "11211", "latitude": 33.5847174, "longitude": -112.0624896, "stars": 3.0, "review_count": 82, "is_open": 1, "attributes": {"ByAppointmentOnly": "True", "BusinessAcceptsCreditCards": "True"}, "categories": "Dentists, Cosmetic Dentists, Orthodontists, Health & Medical, General Dentistry", "hours": {"Monday": "0:0-0:0", "Tuesday": "10:0-19:0", "Wednesday": "10:0-18:0", "Friday": "10:0-17:0", "Saturday": "10:0-16:0"}}, {"business_id": "-37cHdR8Z4Qrql6b6VoB9w", "name": "Dunkin'", "address": "1038 State Route 11", "city": "Champlain", "state": "NY", "postal_code": "12919", "latitude": 44.9814762559, "longitude": -73.4592179706, "stars": 1.0, "review_count": 4, "is_open": 1, "attributes": {"OutdoorSeating": "False", "BusinessAcceptsCreditCards": "True", "WiFi": "'no'", "BikeParking": "False", "RestaurantsPriceRange2": "1", "RestaurantsTakeOut": "True"}, "categories": "Bagels, Food, Donuts, Coffee & Tea", "hours": {"Monday": "5:0-21:0", "Tuesday": "5:0-21:0", "Wednesday": "5:0-21:0", "Thursday": "5:0-22:0", "Friday": "5:0-22:0", "Saturday": "5:0-22:0", "Sunday": "5:0-21:0"}}, {"business_id": "6ipr7nnwrzf_o3MGD-8nlA", "name": "Gino's Pizza", "address": "46 Lake St", "city": "Rouses Point", "state": "NY", "postal_code": "12979", "latitude": 44.9958866, "longitude": -73.3657087, "stars": 4.5, "review_count": 17, "is_open": 1, "attributes": {"BusinessAcceptsCreditCards": "True", "RestaurantsAttire": "u'casual'", "RestaurantsReservations": "False", "GoodForKids": "True", "BusinessParking": "{'garage': False, 'street': False, 'validated': False, 'lot': True, 'valet': False}", "RestaurantsDelivery": "True", "RestaurantsPriceRange2": "1", "RestaurantsTakeOut": "True", "RestaurantsGoodForGroups": "True", "WiFi": "'no'", "Alcohol": "'none'", "BikeParking": "True", "Ambience": "{'romantic': False, 'intimate': False, 'touristy': False, 'hipster': False, 'divey': False, 'classy': False, 'trendy': False, 'upscale': False, 'casual': False}", "NoiseLevel": "u'average'", "OutdoorSeating": "True", "HasTV": "True"}, "categories": "Restaurants, Pizza", "hours": null}, {"business_id": "M8v5TVWQu-mw6Qn3SPc1aQ", "name": "American Parcel Services", "address": "100 Walnut St, Ste 19", "city": "Champlain", "state": "NY", "postal_code": "12919", "latitude": 44.9850246243, "longitude": -73.4339690208, "stars": 2.5, "review_count": 3, "is_open": 1, "attributes": {"BusinessAcceptsCreditCards": "True"}, "categories": "Shipping Centers, Local Services, Professional Services", "hours": {"Monday": "8:0-16:30", "Tuesday": "8:0-16:30", "Wednesday": "8:0-16:30", "Thursday": "8:0-16:30", "Friday": "8:0-16:30", "Saturday": "8:0-12:0"}}, {"business_id": "7LBGPfgMLMBVpf3KavA0LA", "name": "Safari Beauty Studio", "address": "9213 165th St", "city": "New York", "state": "NY", "postal_code": "11433", "latitude": 36.045718851, "longitude": -115.3133908287, "stars": 4.0, "review_count": 16, "is_open": 1, "attributes": {"RestaurantsPriceRange2": "2", "BikeParking": "False", "BusinessAcceptsCreditCards": "True", "BusinessParking": "{'garage': False, 'street': True, 'validated': False, 'lot': True, 'valet': False}", "BusinessAcceptsBitcoin": "False", "GoodForKids": "True", "ByAppointmentOnly": "True", "HairSpecializesIn": "{'straightperms': True, 'coloring': True, 'extensions': True, 'africanamerican': True, 'curly': True, 'kids': True, 'perms': True, 'asian': True}", "WheelchairAccessible": "True"}, "categories": "Cosmetics & Beauty Supply, Makeup Artists, Wigs, Shopping, Beauty & Spas, Blow Dry/Out Services, Nail Salons, Hair Extensions, Hair Salons, Hair Stylists", "hours": {"Monday": "9:30-19:0", "Wednesday": "9:30-19:0", "Thursday": "9:30-19:0", "Friday": "9:0-20:0", "Saturday": "9:0-20:0"}}]